{"type":"FeatureCollection", "features": [
{"type":"Feature","geometry":{"type":"Point","coordinates":[101.27424621582033,14.245820045471191]},"properties":{"Level_Station_Name_T":"บ้านเขานางบวช","Level_Station_Code":"Ny.1B","no":1,"sta_id":380,"district":"อ.เมืองนครนายก","province":"จ.นครนายก","da_km2":519,"lat":14.245820045471191,"long":101.27424621582033}},
{"type":"Feature","geometry":{"type":"Point","coordinates":[101.07047271728516,14.286439895629885]},"properties":{"Level_Station_Name_T":"บ้านป่าขะ","Level_Station_Code":"Ny.3","no":2,"sta_id":410,"district":"อ.บ้านนา","province":"จ.นครนายก","da_km2":203,"lat":14.286439895629885,"long":101.07047271728516}},
{"type":"Feature","geometry":{"type":"Point","coordinates":[101.21930694580078,14.200480461120605]},"properties":{"Level_Station_Name_T":"เทศบาลเมือง","Level_Station_Code":"Ny.7","no":3,"sta_id":412,"district":"อ.เมืองนครนายก","province":"จ.นครนายก","da_km2":null,"lat":14.200480461120605,"long":101.21930694580078}},
{"type":"Feature","geometry":{"type":"Point","coordinates":[101.36737823486328,14.051440238952637]},"properties":{"Level_Station_Name_T":"บ้านหน้าเมือง","Level_Station_Code":"KGT.1","no":4,"sta_id":612,"district":"อ.เมืองปราจีนบุรี","province":"จ.ปราจีนบุรี","da_km2":9209,"lat":14.051440238952637,"long":101.36737823486328}},
{"type":"Feature","geometry":{"type":"Point","coordinates":[101.70540618896484,13.98666000366211]},"properties":{"Level_Station_Name_T":"อ. กบินทร์บุรี","Level_Station_Code":"KGT.3","no":5,"sta_id":362,"district":"อ.กบินทร์บุรี","province":"จ.ปราจีนบุรี","da_km2":7520,"lat":13.98666000366211,"long":101.70540618896484}},
{"type":"Feature","geometry":{"type":"Point","coordinates":[101.51744842529295,13.97340965270996]},"properties":{"Level_Station_Name_T":"อ.ศรีมหาโพธิ์","Level_Station_Code":"KGT.6","no":6,"sta_id":383,"district":"อ.ศรีมหาโพธิ์","province":"จ.ปราจีนบุรี","da_km2":7978,"lat":13.97340965270996,"long":101.51744842529295}},
{"type":"Feature","geometry":{"type":"Point","coordinates":[101.28177642822266,13.404720306396484]},"properties":{"Level_Station_Name_T":"คลองหลวง","Level_Station_Code":"KGT.19A","no":7,"sta_id":365,"district":"อ.เกาะจันทร์","province":"จ.ชลบุรี","da_km2":null,"lat":13.404720306396484,"long":101.28177642822266}},
{"type":"Feature","geometry":{"type":"Point","coordinates":[101.07701110839844,13.688799858093262]},"properties":{"Level_Station_Name_T":"แม่น้ำบางปะกง","Level_Station_Code":"KGT.30","no":8,"sta_id":389,"district":"อ.เมืองฉะเชิงเทรา","province":"จ.ฉะเชิงเทรา","da_km2":null,"lat":13.688799858093262,"long":101.07701110839844}},
{"type":"Feature","geometry":{"type":"Point","coordinates":[101.61573791503906,12.857830047607422]},"properties":{"Level_Station_Name_T":"บ้านเขาวังไทร","Level_Station_Code":"Z.11","no":9,"sta_id":397,"district":"อ.แกลง","province":"จ.ระยอง","da_km2":1280,"lat":12.857830047607422,"long":101.61573791503906}},
{"type":"Feature","geometry":{"type":"Point","coordinates":[101.22840118408205,12.737959861755373]},"properties":{"Level_Station_Name_T":"บ้านเขาโบสถ์","Level_Station_Code":"Z.38","no":10,"sta_id":403,"district":"อ.เมืองระยอง","province":"จ.ระยอง","da_km2":151,"lat":12.737959861755373,"long":101.22840118408205}},
{"type":"Feature","geometry":{"type":"Point","coordinates":[101.29593658447266,12.78357982635498]},"properties":{"Level_Station_Name_T":"บ้านค่าย","Level_Station_Code":"Z.62","no":11,"sta_id":409,"district":"อ.บ้านค่าย","province":"จ.ระยอง","da_km2":null,"lat":12.78357982635498,"long":101.29593658447266}}
]}