{"type":"FeatureCollection", "features": [
{"type":"Feature","geometry":{"type":"Point","coordinates":[101.45833,13.51556]},"properties":{"sta_code":"48458","name":"ฉะเชิงเทรา","name_en":"CHACHOENGSAO","agency":"tmd","tambon":"คู้ยายหมี","district":"สนามชัยเขต","province":"ฉะเชิงเทรา","lat":13.51556,"long":101.45833}},
{"type":"Feature","geometry":{"type":"Point","coordinates":[100.76167,13.51667]},"properties":{"sta_code":"48420","name":"สมุทรปราการ สกษ.","name_en":"Samut Prakarn","agency":"tmd","tambon":"บางปู","district":"เมืองสมุทรปราการ","province":"สมุทรปราการ","lat":13.51667,"long":100.76167}},
{"type":"Feature","geometry":{"type":"Point","coordinates":[100.7675,13.68639]},"properties":{"sta_code":"48429","name":"สนามบินสุวรรณภูมิ","name_en":"SUVARNABHUMI AIRPORT","agency":"tmd","tambon":"หนองปรือ","district":"บางพลี","province":"สมุทรปราการ","lat":13.68639,"long":100.7675}},
{"type":"Feature","geometry":{"type":"Point","coordinates":[101.36931,14.05842]},"properties":{"sta_code":"48430","name":"ปราจีนบุรี","name_en":"PRACHIN BURI","agency":"tmd","tambon":"หน้าเมือง","district":"เมืองปราจีนบุรี","province":"ปราจีนบุรี","lat":14.05842,"long":101.36931}},
{"type":"Feature","geometry":{"type":"Point","coordinates":[101.70722,13.98333]},"properties":{"sta_code":"48439","name":"กบินทร์บุรี","name_en":"KABIN BURI","agency":"tmd","tambon":"กบินทร์","district":"กบินทร์บุรี","province":"ปราจีนบุรี","lat":13.98333,"long":101.70722}},
{"type":"Feature","geometry":{"type":"Point","coordinates":[102.03472,13.78889]},"properties":{"sta_code":"48440","name":"สระแก้ว","name_en":"SA KAEW","agency":"tmd","tambon":"สระขวัญ","district":"เมืองสระแก้ว","province":"สระแก้ว","lat":13.78889,"long":102.03472}},
{"type":"Feature","geometry":{"type":"Point","coordinates":[100.98333,13.36667]},"properties":{"sta_code":"48459","name":"ชลบุรี","name_en":"CHON BURI","agency":"tmd","tambon":"บางปลาสร้อย","district":"เมืองชลบุรี","province":"ชลบุรี","lat":13.36667,"long":100.98333}},
{"type":"Feature","geometry":{"type":"Point","coordinates":[100.80194,13.16167]},"properties":{"sta_code":"48460","name":"เกาะสีชัง","name_en":"KO SICHANG","agency":"tmd","tambon":"ท่าเทววงษ์","district":"เกาะสีชัง","province":"ชลบุรี","lat":13.16167,"long":100.80194}},
{"type":"Feature","geometry":{"type":"Point","coordinates":[100.86944,12.92]},"properties":{"sta_code":"48461","name":"พัทยา","name_en":"PHATTHAYA","agency":"tmd","tambon":"เขตการปกครองพิเศษพัทยา","district":"บางละมุง","province":"ชลบุรี","lat":12.92,"long":100.86944}},
{"type":"Feature","geometry":{"type":"Point","coordinates":[100.98333,12.68333]},"properties":{"sta_code":"48477","name":"สัตหีบ","name_en":"SATTAHIP","agency":"tmd","tambon":"พลูตาหลวง","district":"สัตหีบ","province":"ชลบุรี","lat":12.68333,"long":100.98333}},
{"type":"Feature","geometry":{"type":"Point","coordinates":[100.87583,13.07694]},"properties":{"sta_code":"48463","name":"แหลมฉบัง","name_en":"LAEM CHABANG","agency":"tmd","tambon":"ทุ่งสุขลา","district":"ศรีราชา","province":"ชลบุรี","lat":13.07694,"long":100.87583}},
{"type":"Feature","geometry":{"type":"Point","coordinates":[101.34361,12.63222]},"properties":{"sta_code":"48478","name":"ระยอง","name_en":"RAYONG","agency":"tmd","tambon":"ตะพง","district":"เมืองระยอง","province":"ระยอง","lat":12.63222,"long":101.34361}},
{"type":"Feature","geometry":{"type":"Point","coordinates":[101.135,12.735]},"properties":{"sta_code":"48479","name":"ห้วยโป่ง สกษ.","name_en":"HUAI PONG AGROMET.","agency":"tmd","tambon":"มาบตาพุด","district":"เมืองระยอง","province":"ระยอง","lat":12.735,"long":101.135}},
{"type":"Feature","geometry":{"type":"Point","coordinates":[102.11333,12.61667]},"properties":{"sta_code":"48480","name":"จันทบุรี","name_en":"CHANTHA BURI","agency":"tmd","tambon":"วัดใหม่","district":"เมืองจันทบุรี","province":"จันทบุรี","lat":12.61667,"long":102.11333}}
]}