{"type":"FeatureCollection", "features": [
    {"type":"Feature","geometry":{"type":"Point","coordinates":[101.566703,12.979399]},"properties":{"Reservoir_Name_T":"ประแสร์","no":4,"res_code":"ps","rid_code":"100505","tambon":"ต.ชุมแสง","district":"อ.วังจันทร์","province":"จ.ระยอง","type":"main","size":"l","owner":"rid","long":101.566703,"lat":12.979399,"da_km2":580.58,"maxvol":322,"nhvol":295,"minvol":20,"maxwl":36.57,"nhwl":35,"minwl":24,"inflow_avg":294}},
    {"type":"Feature","geometry":{"type":"Point","coordinates":[101.352853,13.389863]},"properties":{"Reservoir_Name_T":"คลองหลวง รัชชโลทร","no":7,"res_code":"kl","rid_code":"rsv491","tambon":"ต.เกาะจันทร์","district":"อ.เกาะจันทร์","province":"จ.ชลบุรี","type":"main","size":"m","owner":"rid","long":101.352853,"lat":13.389863,"da_km2":479.118,"maxvol":140.16,"nhvol":98,"minvol":2.95,"maxwl":37.16,"nhwl":35.5,"minwl":28,"inflow_avg":133.52}},
    {"type":"Feature","geometry":{"type":"Point","coordinates":[100.962142,13.210864]},"properties":{"Reservoir_Name_T":"บางพระ","no":6,"res_code":"bp","rid_code":"100503","tambon":"ต.บางพระ","district":"อ.ศรีราชา","province":"จ.ชลบุรี","type":"main","size":"l","owner":"rid","long":100.962142,"lat":13.210864,"da_km2":60.12,"maxvol":127,"nhvol":117,"minvol":12.058,"maxwl":30.6,"nhwl":30,"minwl":20,"inflow_avg":47}},
    {"type":"Feature","geometry":{"type":"Point","coordinates":[101.652335,13.440328]},"properties":{"Reservoir_Name_T":"คลองสียัด","no":8,"res_code":"ksy","rid_code":"100502","tambon":"ต.ท่าตะเกียบ","district":"อ.ท่าตะเกียบ","province":"จ.ฉะเชิงเทรา","type":"main","size":"l","owner":"rid","long":101.652335,"lat":13.440328,"da_km2":976.546,"maxvol":450,"nhvol":420,"minvol":30,"maxwl":65.45,"nhwl":65.1,"minwl":51.5,"inflow_avg":286}},
    {"type":"Feature","geometry":{"type":"Point","coordinates":[101.220512,12.887343]},"properties":{"Reservoir_Name_T":"ดอกกราย","no":1,"res_code":"dk","rid_code":"rsv357","tambon":"ต.แม่น้ำคู้","district":"อ.ปลวกแดง","province":"จ.ระยอง","type":"main","size":"m","owner":"rid","long":101.220512,"lat":12.887343,"da_km2":277.85,"maxvol":82,"nhvol":79.41,"minvol":3,"maxwl":53.3,"nhwl":52.6,"minwl":40,"inflow_avg":156.63}},
    {"type":"Feature","geometry":{"type":"Point","coordinates":[101.325935,12.964004]},"properties":{"Reservoir_Name_T":"คลองใหญ่","no":3,"res_code":"ky","rid_code":"rsv359","tambon":"ต.ละหาร","district":"อ.ปลวกแดง","province":"จ.ระยอง","type":"main","size":"m","owner":"rid","long":101.325935,"lat":12.964004,"da_km2":220.45,"maxvol":58.5,"nhvol":45.465,"minvol":3,"maxwl":47.72,"nhwl":46,"minwl":40,"inflow_avg":49.2}},
    {"type":"Feature","geometry":{"type":"Point","coordinates":[101.283671,12.931205]},"properties":{"Reservoir_Name_T":"หนองปลาไหล","no":2,"res_code":"npl","rid_code":"100504","tambon":"ต.ปลวกแดง","district":"อ.ปลวกแดง","province":"จ.ระยอง","type":"main","size":"l","owner":"rid","long":101.283671,"lat":12.931205,"da_km2":401.33,"maxvol":205.85,"nhvol":163.75,"minvol":13.5,"maxwl":46.7,"nhwl":45,"minwl":33.3,"inflow_avg":187}},
    {"type":"Feature","geometry":{"type":"Point","coordinates":[101.034451,13.131877]},"properties":{"Reservoir_Name_T":"หนองค้อ","no":5,"res_code":"nk","rid_code":"rsv346","tambon":"ต.หนองขาม","district":"อ.ศรีราชา","province":"จ.ชลบุรี","type":"main","size":"m","owner":"rid","long":101.034451,"lat":13.131877,"da_km2":123.24,"maxvol":23.4,"nhvol":21.4,"minvol":1,"maxwl":66.5,"nhwl":65,"minwl":57.5,"inflow_avg":19}}
    ]}